City,Cloudiness,Country,Date,Humidity,Lat,Lng,Max_Temp,Wind_Speed
San Juan del Parana,0,PY,1970-01-01 00:00:01.556121600,62,-27.3,-55.97,30.0,4.1
Cape Town,20,ZA,1970-01-01 00:00:01.556125376,72,-33.93,18.42,20.56,3.6
Ushuaia,20,AR,1970-01-01 00:00:01.556121600,66,-54.81,-68.31,9.0,10.8
Lahaina,40,US,1970-01-01 00:00:01.556125240,78,20.87,-156.68,23.0,5.1
Albany,75,US,1970-01-01 00:00:01.556125443,57,42.65,-73.75,13.33,6.7
Bennington,90,US,1970-01-01 00:00:01.556125443,65,42.88,-73.2,13.33,3.1
Kaitangata,100,NZ,1970-01-01 00:00:01.556125621,87,-46.28,169.85,8.33,0.89
Avarua,76,CK,1970-01-01 00:00:01.556123400,73,-21.21,-159.78,25.0,5.1
Broken Hill,90,AU,1970-01-01 00:00:01.556121600,45,-31.97,141.45,18.0,8.2
Chapais,90,CA,1970-01-01 00:00:01.556123580,80,49.78,-74.86,2.0,6.2
Saskylakh,9,RU,1970-01-01 00:00:01.556125654,87,71.97,114.09,-20.15,5.52
Boquete,20,PA,1970-01-01 00:00:01.556121600,58,8.78,-82.43,31.0,2.1
Mahebourg,40,MU,1970-01-01 00:00:01.556125441,83,-20.41,57.7,26.0,2.1
Rikitea,72,PF,1970-01-01 00:00:01.556125631,84,-23.12,-134.97,26.05,4.77
Lismore,90,AU,1970-01-01 00:00:01.556125366,93,-28.81,153.28,19.0,0.5
Faanui,100,PF,1970-01-01 00:00:01.556125523,78,-16.48,-151.75,28.55,6.53
Davenda,0,RU,1970-01-01 00:00:01.556125655,57,53.56,119.32,-4.85,0.31
Komsomolskiy,0,RU,1970-01-01 00:00:01.556125655,96,67.55,63.78,-14.35,1.87
Hereford,20,GB,1970-01-01 00:00:01.556125624,76,52.06,-2.72,13.33,3.1
Jamestown,0,AU,1970-01-01 00:00:01.556125628,90,-33.21,138.6,11.75,1.31
Hermanus,0,ZA,1970-01-01 00:00:01.556125297,88,-34.42,19.24,20.56,1.34
Kawalu,100,ID,1970-01-01 00:00:01.556125657,96,-7.38,108.21,21.95,1.07
Bluff,98,AU,1970-01-01 00:00:01.556125657,84,-23.58,149.07,20.05,7.63
Mount Gambier,40,AU,1970-01-01 00:00:01.556121600,93,-37.83,140.78,10.0,3.6
Vaini,49,IN,1970-01-01 00:00:01.556125632,68,15.34,74.49,27.35,1.64
Qaanaaq,100,GL,1970-01-01 00:00:01.556125630,85,77.48,-69.36,-13.65,2.15
Nouadhibou,0,MR,1970-01-01 00:00:01.556121600,57,20.93,-17.03,24.0,7.7
Iraucuba,99,BR,1970-01-01 00:00:01.556125658,87,-3.75,-39.78,28.05,2.21
Padang,100,ID,1970-01-01 00:00:01.556125659,74,-0.92,100.36,29.05,6.0
Arlit,0,NE,1970-01-01 00:00:01.556125659,15,18.74,7.39,34.25,5.37
San Jeronimo,90,PE,1970-01-01 00:00:01.556121600,57,-13.65,-73.37,11.0,5.11
Hailar,0,CN,1970-01-01 00:00:01.556125661,25,49.2,119.7,0.75,1.83
Dunedin,94,NZ,1970-01-01 00:00:01.556125192,79,-45.87,170.5,12.22,4.47
Kapaa,75,US,1970-01-01 00:00:01.556125413,69,22.08,-159.32,24.0,6.7
New Norfolk,75,AU,1970-01-01 00:00:01.556125334,44,-42.78,147.06,15.0,4.6
Banda Aceh,94,ID,1970-01-01 00:00:01.556125598,77,5.56,95.32,29.55,4.06
Mataura,100,NZ,1970-01-01 00:00:01.556125206,95,-46.19,168.86,10.0,1.81
Talaya,0,RU,1970-01-01 00:00:01.556125233,42,55.79,84.89,7.0,3.0
Nome,90,US,1970-01-01 00:00:01.556125454,69,30.04,-94.42,25.56,4.1
Pevek,0,RU,1970-01-01 00:00:01.556125663,63,69.7,170.27,-12.35,2.59
Itacoatiara,40,BR,1970-01-01 00:00:01.556121600,74,-3.14,-58.44,30.0,2.6
Mogadishu,98,SO,1970-01-01 00:00:01.556125570,72,2.04,45.34,28.85,4.68
Tuy Hoa,40,VN,1970-01-01 00:00:01.556125377,94,13.08,109.3,23.35,0.64
Dehloran,0,IR,1970-01-01 00:00:01.556125665,32,32.69,47.27,15.05,1.45
Iqaluit,75,CA,1970-01-01 00:00:01.556125371,71,63.75,-68.52,-13.0,2.6
Khatanga,99,RU,1970-01-01 00:00:01.556125665,89,71.98,102.47,-15.75,8.69
Tuktoyaktuk,40,CA,1970-01-01 00:00:01.556121600,77,69.44,-133.03,-15.0,5.1
Inhambane,75,MZ,1970-01-01 00:00:01.556121600,94,-23.87,35.38,25.0,1.5
Torbay,90,CA,1970-01-01 00:00:01.556125409,100,47.66,-52.73,0.56,8.7
Podgornoye,98,RU,1970-01-01 00:00:01.556125667,81,57.79,82.64,2.95,3.22
Ponta do Sol,70,BR,1970-01-01 00:00:01.556125667,72,-20.63,-46.0,24.75,3.03
Punta Arenas,20,CL,1970-01-01 00:00:01.556125396,54,-53.16,-70.91,12.78,10.3
Saint-Augustin,0,FR,1970-01-01 00:00:01.556125570,48,44.83,-0.61,17.0,7.2
Campbell River,5,CA,1970-01-01 00:00:01.556125221,40,50.02,-125.24,9.44,7.2
Puerto Ayora,40,EC,1970-01-01 00:00:01.556125297,83,-0.74,-90.35,28.0,4.6
Champerico,5,MX,1970-01-01 00:00:01.556120580,31,16.38,-93.6,31.0,2.1
Hobart,75,AU,1970-01-01 00:00:01.556125641,44,-42.88,147.33,15.0,4.6
Castro,0,CL,1970-01-01 00:00:01.556121600,54,-42.48,-73.76,14.0,5.1
Fuling,18,CN,1970-01-01 00:00:01.556125671,56,29.71,107.39,25.05,1.0
Aswan,0,EG,1970-01-01 00:00:01.556121600,6,24.09,32.9,35.0,5.1
Palmer,20,US,1970-01-01 00:00:01.556125635,80,61.6,-149.11,1.11,0.68
Atuona,0,PF,1970-01-01 00:00:01.556125545,78,-9.8,-139.03,28.15,6.49
Katsuura,75,JP,1970-01-01 00:00:01.556123882,100,33.93,134.5,18.0,2.1
Temerloh,72,MY,1970-01-01 00:00:01.556125673,91,3.45,102.42,24.55,0.4
Pisco,0,PE,1970-01-01 00:00:01.556125272,30,-13.71,-76.2,25.56,4.1
Rawson,53,AR,1970-01-01 00:00:01.556125674,43,-43.3,-65.11,18.55,8.24
Yar-Sale,100,RU,1970-01-01 00:00:01.556125674,93,66.83,70.83,-11.15,1.16
Kamenka,0,RU,1970-01-01 00:00:01.556125675,60,53.19,44.05,13.35,3.18
East London,75,ZA,1970-01-01 00:00:01.556121600,88,-33.02,27.91,18.0,1.0
Siocon,56,PH,1970-01-01 00:00:01.556125675,77,11.03,124.04,25.65,2.73
Aksarka,100,RU,1970-01-01 00:00:01.556125676,92,66.56,67.8,-12.15,2.45
Port Elizabeth,17,US,1970-01-01 00:00:01.556125660,37,39.31,-74.98,23.33,5.1
Hithadhoo,27,MV,1970-01-01 00:00:01.556125677,79,-0.6,73.08,29.65,6.43
Albina,99,GF,1970-01-01 00:00:01.556125677,87,5.5,-54.06,28.05,1.73
Launceston,47,AU,1970-01-01 00:00:01.556125566,81,-41.43,147.14,13.89,7.7
Ballina,90,IE,1970-01-01 00:00:01.556125384,93,54.11,-9.15,12.78,4.1
Airai,61,TL,1970-01-01 00:00:01.556125678,70,-8.93,125.41,24.35,3.47
Chalmeca,40,NI,1970-01-01 00:00:01.556121600,66,12.13,-84.1,30.0,2.1
Dongsheng,71,CN,1970-01-01 00:00:01.556125678,60,29.72,112.52,24.05,1.54
Barrow,21,AR,1970-01-01 00:00:01.556125679,42,-38.31,-60.23,21.35,2.96
Itarema,88,BR,1970-01-01 00:00:01.556125679,84,-2.92,-39.92,28.85,3.1
Cabo San Lucas,20,MX,1970-01-01 00:00:01.556125282,77,22.89,-109.91,27.78,2.1
Klaksvik,1,FO,1970-01-01 00:00:01.556124600,66,62.23,-6.59,11.0,11.3
Kodiak,90,US,1970-01-01 00:00:01.556125625,77,39.95,-94.76,17.0,1.32
Homer,1,US,1970-01-01 00:00:01.556125606,47,59.64,-151.54,3.89,2.6
Tuatapere,100,NZ,1970-01-01 00:00:01.556125206,95,-46.13,167.69,10.0,4.99
Vanavara,36,RU,1970-01-01 00:00:01.556125681,90,60.35,102.28,-1.05,2.39
Busselton,0,AU,1970-01-01 00:00:01.556125533,45,-33.64,115.35,16.67,6.98
Isangel,22,VU,1970-01-01 00:00:01.556125682,81,-19.55,169.27,26.05,6.86
Xining,79,CN,1970-01-01 00:00:01.556125683,30,36.62,101.77,9.35,1.76
Arraial do Cabo,20,BR,1970-01-01 00:00:01.556125200,78,-22.97,-42.02,31.0,6.2
Nantucket,90,US,1970-01-01 00:00:01.556125624,63,41.28,-70.1,20.0,4.6
Geraldton,90,CA,1970-01-01 00:00:01.556122620,69,49.72,-86.95,3.0,3.6
Arman,100,RU,1970-01-01 00:00:01.556125684,92,59.7,150.17,-3.95,1.23
Kruisfontein,100,ZA,1970-01-01 00:00:01.556125684,95,-34.0,24.73,16.85,2.21
Santa Maria,20,BR,1970-01-01 00:00:01.556121600,69,-29.69,-53.81,27.0,2.6
Norman Wells,40,CA,1970-01-01 00:00:01.556121600,79,65.28,-126.83,-4.0,6.2
Bredasdorp,33,ZA,1970-01-01 00:00:01.556125297,82,-34.53,20.04,19.0,4.1
Cuamba,92,MZ,1970-01-01 00:00:01.556125686,73,-14.8,36.54,21.75,3.02
Port Lincoln,53,AU,1970-01-01 00:00:01.556125623,72,-34.72,135.86,17.55,3.29
Butaritari,99,KI,1970-01-01 00:00:01.556125687,81,3.07,172.79,28.45,8.6
Yellowknife,90,CA,1970-01-01 00:00:01.556122620,92,62.45,-114.38,-3.0,4.1
Chumikan,68,RU,1970-01-01 00:00:01.556125687,82,54.72,135.31,-5.95,3.06
Sisimiut,97,GL,1970-01-01 00:00:01.556125639,85,66.94,-53.67,-12.05,8.78
Afsin,92,TR,1970-01-01 00:00:01.556125687,70,38.25,36.91,3.25,2.3
Port Alfred,85,ZA,1970-01-01 00:00:01.556125614,94,-33.59,26.89,17.22,1.73
Solnechnyy,100,RU,1970-01-01 00:00:01.556125688,93,50.72,136.64,-1.85,5.98
Chara,20,GR,1970-01-01 00:00:01.556125402,67,39.42,22.43,18.0,4.6
San Patricio,100,PY,1970-01-01 00:00:01.556125689,76,-26.98,-56.83,28.15,1.72
Sabha,1,LY,1970-01-01 00:00:01.556125690,12,27.03,14.43,34.65,4.63
Bethel,1,US,1970-01-01 00:00:01.556124780,85,60.79,-161.76,-6.0,1.5
Thompson,75,CA,1970-01-01 00:00:01.556121600,57,55.74,-97.86,10.0,8.2
Kahului,40,US,1970-01-01 00:00:01.556125240,78,20.89,-156.47,23.0,5.1
Songea,100,TZ,1970-01-01 00:00:01.556125691,87,-10.68,35.65,18.95,1.9
Biltine,67,TD,1970-01-01 00:00:01.556125692,3,14.53,20.93,33.25,4.73
San Cristobal,90,EC,1970-01-01 00:00:01.556125211,77,-0.39,-78.55,16.0,3.6
Shubarshi,91,KZ,1970-01-01 00:00:01.556125692,50,48.59,57.19,11.45,3.77
Ambilobe,100,MG,1970-01-01 00:00:01.556125693,75,-13.19,49.05,25.95,5.41
Cayenne,100,GF,1970-01-01 00:00:01.556123400,94,4.94,-52.33,26.0,3.85
Ajdabiya,91,LY,1970-01-01 00:00:01.556125578,31,30.75,20.22,25.95,7.82
Upernavik,100,GL,1970-01-01 00:00:01.556125694,90,72.79,-56.15,-11.25,2.63
Bom Jesus da Lapa,35,BR,1970-01-01 00:00:01.556125694,41,-13.25,-43.41,31.65,2.36
Fukue,75,JP,1970-01-01 00:00:01.556125551,93,35.03,136.69,20.56,7.2
Mitsamiouli,90,KM,1970-01-01 00:00:01.556121600,88,-11.38,43.28,27.0,7.7
Allapalli,30,IN,1970-01-01 00:00:01.556125695,20,19.43,80.06,35.05,1.54
Husavik,100,CA,1970-01-01 00:00:01.556125512,29,50.56,-96.99,18.33,7.6
Matay,37,EG,1970-01-01 00:00:01.556125696,16,28.42,30.79,25.85,10.64
Sao Filipe,4,CV,1970-01-01 00:00:01.556125696,79,14.9,-24.5,21.65,7.89
Poum,40,MK,1970-01-01 00:00:01.556123400,55,41.28,20.71,17.0,1.0
Cabedelo,75,BR,1970-01-01 00:00:01.556121600,66,-6.97,-34.84,31.0,7.2
Bonthe,81,SL,1970-01-01 00:00:01.556125697,58,7.53,-12.5,30.25,5.52
Nanortalik,17,GL,1970-01-01 00:00:01.556125697,61,60.14,-45.24,-4.15,15.88
Praya,20,ID,1970-01-01 00:00:01.556121600,94,-8.71,116.27,25.0,2.6
Verkhnyaya Inta,57,RU,1970-01-01 00:00:01.556125698,91,65.99,60.32,-8.55,3.28
Torrox,75,ES,1970-01-01 00:00:01.556125631,67,36.76,-3.95,18.89,7.2
Lisala,74,CD,1970-01-01 00:00:01.556125699,48,2.15,21.52,28.25,1.43
Morant Bay,75,JM,1970-01-01 00:00:01.556121600,54,17.88,-76.41,29.0,2.6
Ola,80,RU,1970-01-01 00:00:01.556125700,87,59.58,151.3,-0.85,2.53
Carnarvon,77,ZA,1970-01-01 00:00:01.556125700,49,-30.97,22.13,16.25,2.73
Makakilo City,75,US,1970-01-01 00:00:01.556125435,73,21.35,-158.09,24.0,1.5
Pontianak,100,ID,1970-01-01 00:00:01.556125701,74,-0.02,109.34,28.55,0.91
Hilo,90,US,1970-01-01 00:00:01.556125524,88,19.71,-155.08,21.11,2.1
Lac du Bonnet,100,CA,1970-01-01 00:00:01.556125512,29,50.25,-96.06,18.33,7.6
Georgetown,75,GY,1970-01-01 00:00:01.556121600,74,6.8,-58.16,31.0,6.2
Faya,40,SA,1970-01-01 00:00:01.556121600,35,18.39,42.45,22.0,1.5
Alofi,100,NU,1970-01-01 00:00:01.556121600,83,-19.06,-169.92,25.0,5.1
Kintampo,100,GH,1970-01-01 00:00:01.556125703,51,8.05,-1.73,32.25,3.08
Las Cruces,75,CL,1970-01-01 00:00:01.556121600,93,-33.5,-71.62,14.0,1.0
Saint-Philippe,90,CA,1970-01-01 00:00:01.556125657,100,45.36,-73.48,7.78,6.2
Belaya Gora,0,RU,1970-01-01 00:00:01.556125704,94,68.54,146.19,-8.15,3.75
Kavieng,56,PG,1970-01-01 00:00:01.556125705,73,-2.57,150.8,29.15,2.93
Madang,78,PG,1970-01-01 00:00:01.556125705,99,-5.21,145.81,21.75,0.22
Bazarnyye Mataki,0,RU,1970-01-01 00:00:01.556125705,66,54.9,49.93,11.95,3.8
Trinidad,90,UY,1970-01-01 00:00:01.556121600,77,-33.52,-56.9,21.0,4.1
Ilulissat,75,GL,1970-01-01 00:00:01.556121000,72,69.22,-51.1,-9.0,6.2
Cidreira,0,BR,1970-01-01 00:00:01.556125706,59,-30.17,-50.22,27.35,1.97
Kavaratti,48,IN,1970-01-01 00:00:01.556125707,74,10.57,72.64,29.75,5.26
Orlik,0,RU,1970-01-01 00:00:01.556125707,62,52.51,99.83,-8.15,1.81
Saint Anthony,75,US,1970-01-01 00:00:01.556125529,58,43.97,-111.68,13.89,6.2
Karasjok,75,NO,1970-01-01 00:00:01.556122800,86,69.47,25.52,5.0,1.5
Henties Bay,0,NA,1970-01-01 00:00:01.556125323,93,-22.12,14.28,12.22,0.45
Novoagansk,92,RU,1970-01-01 00:00:01.556125708,93,61.94,76.66,-13.15,3.87
Talnakh,75,RU,1970-01-01 00:00:01.556121600,84,69.49,88.39,-18.0,6.0
Lerwick,40,GB,1970-01-01 00:00:01.556122800,76,60.15,-1.15,12.0,8.7
Victoria,75,BN,1970-01-01 00:00:01.556123400,74,5.28,115.24,29.0,3.6
Vangaindrano,94,MG,1970-01-01 00:00:01.556125710,95,-23.35,47.6,22.75,1.47
Ocampo,24,PH,1970-01-01 00:00:01.556125710,83,13.56,123.37,24.75,2.26
La Ronge,5,CA,1970-01-01 00:00:01.556121600,37,55.1,-105.3,11.0,7.2
Huarmey,100,PE,1970-01-01 00:00:01.556125711,88,-10.07,-78.15,21.35,7.01
Mildura,0,AU,1970-01-01 00:00:01.556125239,71,-34.18,142.16,13.0,3.1
Mar del Plata,0,AR,1970-01-01 00:00:01.556125712,28,-46.43,-67.52,16.05,1.49
Tiksi,68,RU,1970-01-01 00:00:01.556125712,89,71.64,128.87,-2.05,6.36
Los Llanos de Aridane,40,ES,1970-01-01 00:00:01.556125529,60,28.66,-17.92,21.0,3.1
Salalah,0,OM,1970-01-01 00:00:01.556121000,66,17.01,54.1,29.0,2.6
Severo-Kurilsk,95,RU,1970-01-01 00:00:01.556125713,92,50.68,156.12,0.75,13.16
Douentza,20,ML,1970-01-01 00:00:01.556125714,20,15.01,-2.95,36.65,6.71
Fortuna,20,ES,1970-01-01 00:00:01.556125643,60,38.18,-1.13,21.11,4.1
Myitkyina,0,MM,1970-01-01 00:00:01.556125714,46,25.38,97.4,21.65,1.43
West Wendover,1,US,1970-01-01 00:00:01.556121360,59,40.74,-114.07,16.0,3.1
Aseri,0,EE,1970-01-01 00:00:01.556125715,54,59.45,26.87,11.85,3.19
Port Macquarie,0,AU,1970-01-01 00:00:01.556125505,100,-31.43,152.91,13.89,0.96
Deder,100,ET,1970-01-01 00:00:01.556125716,62,9.31,41.44,25.05,0.83
Timbuktu,0,ML,1970-01-01 00:00:01.556125716,11,16.77,-3.01,37.15,2.4
Kasempa,13,ZM,1970-01-01 00:00:01.556125716,75,-13.46,25.83,19.55,2.15
Taoudenni,0,ML,1970-01-01 00:00:01.556125716,12,22.68,-3.98,32.25,4.26
Coquimbo,90,CL,1970-01-01 00:00:01.556121600,63,-29.95,-71.34,16.0,1.0
Tecpan,40,GT,1970-01-01 00:00:01.556125216,57,14.76,-90.99,25.0,4.1
Lavrentiya,95,RU,1970-01-01 00:00:01.556125718,89,65.58,-170.99,-11.65,0.45
Ostrovnoy,100,RU,1970-01-01 00:00:01.556125718,94,68.05,39.51,1.25,4.81
Mattru,47,SL,1970-01-01 00:00:01.556125718,50,7.62,-11.83,31.45,4.34
Lanigan,0,CA,1970-01-01 00:00:01.556125718,27,51.85,-105.03,13.95,7.57
Chokurdakh,68,RU,1970-01-01 00:00:01.556125719,93,70.62,147.9,-6.25,2.64
Alyangula,0,AU,1970-01-01 00:00:01.556121600,94,-13.85,136.42,23.0,8.59
Saint George,20,GR,1970-01-01 00:00:01.556125402,67,39.45,22.34,18.0,4.6
Carballo,75,ES,1970-01-01 00:00:01.556125669,87,43.21,-8.69,13.33,4.6
College,75,US,1970-01-01 00:00:01.556125565,84,64.86,-147.8,0.56,1.5
Tilichiki,100,RU,1970-01-01 00:00:01.556125720,96,60.47,166.1,-0.65,2.54
Quatre Cocos,40,MU,1970-01-01 00:00:01.556125441,83,-20.21,57.76,26.0,2.1
Luba,3,PH,1970-01-01 00:00:01.556125721,79,17.32,120.7,26.65,0.52
Longyearbyen,75,NO,1970-01-01 00:00:01.556124600,64,78.22,15.63,1.0,8.7
Nara,75,JP,1970-01-01 00:00:01.556125459,100,34.68,135.8,18.89,0.5
Acajutla,2,SV,1970-01-01 00:00:01.556125528,60,13.59,-89.83,30.05,4.01
Luwuk,100,ID,1970-01-01 00:00:01.556125722,99,-0.95,122.79,19.55,0.72
Sambava,100,MG,1970-01-01 00:00:01.556125722,99,-14.27,50.17,22.35,1.12
Hami,73,CN,1970-01-01 00:00:01.556125723,29,42.84,93.51,18.15,0.96
Touros,40,BR,1970-01-01 00:00:01.556125200,74,-5.2,-35.46,30.0,4.6
Japura,100,ID,1970-01-01 00:00:01.556125724,98,-0.42,102.29,24.25,0.66
Tasiilaq,100,GL,1970-01-01 00:00:01.556121000,86,65.61,-37.64,1.0,23.7
Moose Factory,1,CA,1970-01-01 00:00:01.556121600,45,51.26,-80.61,6.0,2.1
Hasaki,75,JP,1970-01-01 00:00:01.556125397,93,35.73,140.83,18.0,4.6
Marsh Harbour,45,BS,1970-01-01 00:00:01.556125725,58,26.54,-77.06,22.95,3.62
Vieux Fort,75,LC,1970-01-01 00:00:01.556121600,70,13.72,-60.95,30.0,7.2
Leningradskiy,0,RU,1970-01-01 00:00:01.556125726,90,69.38,178.42,-14.35,4.26
Avera,1,US,1970-01-01 00:00:01.556125680,39,33.19,-82.53,29.44,5.7
Luderitz,0,NA,1970-01-01 00:00:01.556121600,72,-26.65,15.16,18.0,7.2
Yinchuan,9,CN,1970-01-01 00:00:01.556125705,14,38.48,106.21,15.56,0.89
Jalpan,50,MX,1970-01-01 00:00:01.556125563,30,19.0,-100.36,24.44,4.02
The Pas,0,CA,1970-01-01 00:00:01.556125727,29,53.82,-101.24,15.15,7.08
Kieta,51,PG,1970-01-01 00:00:01.556125728,80,-6.22,155.63,27.15,1.53
Ayagoz,99,KZ,1970-01-01 00:00:01.556125728,61,47.96,80.43,9.05,2.54
Bathsheba,40,BB,1970-01-01 00:00:01.556121600,66,13.22,-59.52,30.0,6.7
Ossora,87,RU,1970-01-01 00:00:01.556125729,90,59.24,163.07,-3.75,1.01
Athabasca,19,CA,1970-01-01 00:00:01.556125729,32,54.72,-113.29,8.85,7.02
Cockburn Town,54,TC,1970-01-01 00:00:01.556125645,62,21.46,-71.14,26.05,2.83
Jiblah,100,YE,1970-01-01 00:00:01.556125730,76,13.92,44.15,20.85,1.36
Ribeira Grande,20,PT,1970-01-01 00:00:01.556123400,55,38.52,-28.7,17.0,7.7
Fort Nelson,75,CA,1970-01-01 00:00:01.556121600,27,58.81,-122.69,5.0,6.7
Virovitica,40,HR,1970-01-01 00:00:01.556125253,68,45.83,17.39,20.0,3.6
Gamboma,72,CG,1970-01-01 00:00:01.556125731,56,-1.87,15.88,28.15,1.67
Goure,100,NE,1970-01-01 00:00:01.556125732,21,13.98,10.27,34.55,2.91
Les Cayes,0,HT,1970-01-01 00:00:01.556125732,73,18.19,-73.75,26.95,5.72
Petropavlovsk-Kamchatskiy,90,RU,1970-01-01 00:00:01.556121600,100,53.05,158.65,1.0,3.0
Aransas Pass,75,US,1970-01-01 00:00:01.556125692,78,27.91,-97.15,27.22,9.3
Gravdal,0,NO,1970-01-01 00:00:01.556125694,41,59.79,5.78,18.0,9.3
Calvia,0,ES,1970-01-01 00:00:01.556125243,59,39.57,2.51,18.0,6.2
Gisborne,43,NZ,1970-01-01 00:00:01.556125201,99,-38.66,178.02,15.56,4.84
Manggar,99,ID,1970-01-01 00:00:01.556125734,92,-2.88,108.27,24.35,1.01
Bograd,10,RU,1970-01-01 00:00:01.556123400,55,54.22,90.86,1.0,2.0
Tarko-Sale,99,RU,1970-01-01 00:00:01.556125666,72,64.92,77.78,-12.78,2.2
Mount Isa,0,AU,1970-01-01 00:00:01.556123400,60,-20.73,139.49,21.0,6.2
Havelock,1,US,1970-01-01 00:00:01.556125618,57,34.88,-76.9,29.44,5.7
Necochea,17,AR,1970-01-01 00:00:01.556125288,61,-38.55,-58.74,17.78,2.24
Svetlaya,41,RU,1970-01-01 00:00:01.556125736,46,46.54,138.33,0.75,2.94
Bandarbeyla,78,SO,1970-01-01 00:00:01.556125737,72,9.49,50.81,27.15,5.72
Togur,99,RU,1970-01-01 00:00:01.556125737,88,58.36,82.83,2.75,2.47
Dergachi,2,RU,1970-01-01 00:00:01.556125738,50,51.24,48.77,12.75,2.63
Sidi Ali,0,DZ,1970-01-01 00:00:01.556125738,62,36.1,0.42,17.15,3.65
Oschatz,0,DE,1970-01-01 00:00:01.556125663,49,51.3,13.11,23.33,5.7
Lebu,75,ET,1970-01-01 00:00:01.556121600,45,8.96,38.73,20.0,6.2
Esso,68,RU,1970-01-01 00:00:01.556125739,96,55.93,158.7,-8.05,2.35
Magadi,20,IN,1970-01-01 00:00:01.556125434,39,12.96,77.22,32.22,2.1
Northam,20,GB,1970-01-01 00:00:01.556125523,76,51.04,-4.21,13.33,6.7
Berlevag,40,NO,1970-01-01 00:00:01.556121000,75,70.86,29.09,5.0,2.6
Marawi,57,PH,1970-01-01 00:00:01.556125314,84,8.0,124.29,25.56,1.79
Raton,1,US,1970-01-01 00:00:01.556125504,44,36.9,-104.44,17.22,1.5
La Libertad,75,PE,1970-01-01 00:00:01.556121600,59,-16.38,-71.56,17.0,3.6
Ancud,0,CL,1970-01-01 00:00:01.556121600,54,-41.87,-73.83,14.0,5.1
Ferrol,75,ES,1970-01-01 00:00:01.556125442,87,43.48,-8.23,12.22,4.6
Nikolskoye,0,RU,1970-01-01 00:00:01.556125451,29,59.7,30.79,17.0,3.0
Leca da Palmeira,75,PT,1970-01-01 00:00:01.556125663,87,41.19,-8.7,14.44,3.6
Daram,71,NG,1970-01-01 00:00:01.556125744,39,9.98,13.15,33.45,1.04
Clyde River,75,CA,1970-01-01 00:00:01.556124000,70,70.47,-68.59,-17.0,3.1
Kabompo,54,ZM,1970-01-01 00:00:01.556125744,65,-13.6,24.21,21.75,1.53
Fairbanks,75,US,1970-01-01 00:00:01.556125565,84,64.84,-147.72,0.56,1.5
Raudeberg,20,NO,1970-01-01 00:00:01.556122800,52,61.99,5.14,19.0,9.8
Terre-de-Bas,90,GP,1970-01-01 00:00:01.556123400,65,15.85,-61.64,28.0,3.1
Rapid City,75,US,1970-01-01 00:00:01.556125680,45,44.08,-103.23,20.0,5.7
Lorengau,57,PG,1970-01-01 00:00:01.556125745,81,-2.02,147.27,26.55,1.55
Kupang,78,ID,1970-01-01 00:00:01.556125746,74,-10.16,123.6,27.85,6.92
Havoysund,75,NO,1970-01-01 00:00:01.556122800,86,71.0,24.66,6.0,2.6
Kysyl-Syr,100,RU,1970-01-01 00:00:01.556125746,94,63.9,122.77,-2.25,3.1
Saldanha,91,PT,1970-01-01 00:00:01.556125746,79,41.42,-6.55,9.65,8.52
Nortelandia,37,BR,1970-01-01 00:00:01.556125747,60,-14.45,-56.8,31.65,2.2
Anadyr,0,RU,1970-01-01 00:00:01.556125396,77,64.73,177.51,-16.0,3.0
Muswellbrook,3,AU,1970-01-01 00:00:01.556125206,95,-32.27,150.89,14.44,1.05
Olga,1,US,1970-01-01 00:00:01.556125735,64,34.11,-118.17,22.78,2.39
Celestun,0,MX,1970-01-01 00:00:01.556125748,76,20.87,-90.4,28.15,0.56
Araouane,0,ML,1970-01-01 00:00:01.556125748,10,18.9,-3.53,34.45,2.79
Big Spring,90,US,1970-01-01 00:00:01.556125521,87,32.25,-101.48,14.0,4.1
Tutoia,20,BR,1970-01-01 00:00:01.556121600,63,-2.76,-42.27,34.0,3.6
Neftcala,5,AZ,1970-01-01 00:00:01.556125750,55,39.37,49.25,10.95,4.98
Kholtoson,11,RU,1970-01-01 00:00:01.556125750,62,50.3,103.31,-3.45,0.65
Kenmare,75,IE,1970-01-01 00:00:01.556123400,66,51.88,-9.58,13.0,4.6
Benguela,20,AO,1970-01-01 00:00:01.556121600,88,-12.58,13.4,26.0,2.1
Aklavik,20,CA,1970-01-01 00:00:01.556121600,72,68.22,-135.01,-12.0,5.1
Bubaque,1,GW,1970-01-01 00:00:01.556125751,77,11.28,-15.83,24.85,8.57
Esperance,40,TT,1970-01-01 00:00:01.556125299,52,10.24,-61.45,33.0,5.7
Dikson,100,RU,1970-01-01 00:00:01.556125752,93,73.51,80.55,-18.15,6.58
Inverell,12,AU,1970-01-01 00:00:01.556125641,83,-29.78,151.11,14.44,0.89
Graaff-Reinet,78,ZA,1970-01-01 00:00:01.556125753,59,-32.25,24.53,19.05,3.15
Yulara,0,AU,1970-01-01 00:00:01.556121600,42,-25.24,130.99,17.0,3.6
Bad Oldesloe,0,DE,1970-01-01 00:00:01.556125693,40,53.81,10.37,24.0,5.1
Saraland,1,US,1970-01-01 00:00:01.556125520,73,30.82,-88.07,23.33,1.5
Aleppo,3,SY,1970-01-01 00:00:01.556125754,48,36.2,37.17,15.45,2.4
Flin Flon,40,CA,1970-01-01 00:00:01.556121600,43,54.77,-101.88,11.0,7.7
Natal,40,BR,1970-01-01 00:00:01.556125200,66,-5.81,-35.21,31.0,7.7
Progreso,75,UY,1970-01-01 00:00:01.556125289,64,-34.68,-56.22,21.0,5.1
Heihe,20,RU,1970-01-01 00:00:01.556121600,69,50.24,127.51,2.0,3.0
Mehamn,75,NO,1970-01-01 00:00:01.556121000,65,71.03,27.85,6.0,1.0
Knokke-Heist,58,BE,1970-01-01 00:00:01.556125704,76,51.33,3.33,17.78,8.2
Anqing,83,CN,1970-01-01 00:00:01.556125756,72,30.51,117.04,21.85,1.52
Puerto Escondido,5,MX,1970-01-01 00:00:01.556120460,69,15.86,-97.07,27.0,3.1
Barranca,100,PE,1970-01-01 00:00:01.556125757,88,-10.75,-77.76,20.85,6.21
Nhulunbuy,0,AU,1970-01-01 00:00:01.556123400,83,-12.18,136.78,27.0,3.6
Praia da Vitoria,40,PT,1970-01-01 00:00:01.556125260,55,38.73,-27.07,18.0,7.7
Alta Floresta,40,BR,1970-01-01 00:00:01.556121600,63,-9.87,-56.08,33.0,1.5
Varangaon,0,IN,1970-01-01 00:00:01.556125758,11,21.01,75.91,37.95,2.62
Port Hedland,74,AU,1970-01-01 00:00:01.556123400,60,-20.31,118.58,22.0,3.6
Dickinson,1,US,1970-01-01 00:00:01.556125631,42,46.88,-102.79,17.78,5.1
Port Hardy,20,CA,1970-01-01 00:00:01.556121600,70,50.7,-127.42,8.0,4.1
Tarrafal,40,CV,1970-01-01 00:00:01.556121600,54,15.28,-23.77,26.0,5.7
Shuangyang,0,CN,1970-01-01 00:00:01.556125759,89,25.0,118.61,24.85,0.39
Falun,0,SE,1970-01-01 00:00:01.556125233,23,60.61,15.63,17.22,8.2
Yushu,98,CN,1970-01-01 00:00:01.556125760,34,44.84,126.53,6.65,2.28
Luancheng,90,CN,1970-01-01 00:00:01.556121600,100,37.88,114.65,9.0,3.0
Olenegorsk,84,RU,1970-01-01 00:00:01.556125760,86,68.14,33.28,2.45,1.41
Richards Bay,52,ZA,1970-01-01 00:00:01.556125761,83,-28.77,32.06,24.55,9.01
Pitimbu,75,BR,1970-01-01 00:00:01.556121600,66,-7.47,-34.81,31.0,7.2
Angoche,100,MZ,1970-01-01 00:00:01.556125761,85,-16.23,39.91,24.75,2.46
Bemidji,1,US,1970-01-01 00:00:01.556125654,42,47.48,-94.89,20.56,5.1
Riyadh,0,SA,1970-01-01 00:00:01.556121600,12,24.63,46.72,24.0,4.6
Ovsyanka,0,RU,1970-01-01 00:00:01.556125762,77,53.58,126.91,-1.45,2.43
Bagotville,75,AU,1970-01-01 00:00:01.556125366,93,-28.98,153.42,19.0,4.1
Dukat,36,RS,1970-01-01 00:00:01.556125763,73,42.44,22.31,11.65,2.44
San Quintin,3,PH,1970-01-01 00:00:01.556125763,79,17.54,120.52,26.65,0.52
Atar,0,MR,1970-01-01 00:00:01.556125764,9,20.52,-13.05,33.45,3.79
Saint-Pierre,98,FR,1970-01-01 00:00:01.556125625,82,48.95,4.24,15.56,4.1
Hay River,20,CA,1970-01-01 00:00:01.556121600,86,60.82,-115.79,4.0,3.6
Nadym,87,RU,1970-01-01 00:00:01.556125767,83,65.53,72.51,-13.75,2.46
Baft,0,IR,1970-01-01 00:00:01.556125768,37,29.23,56.61,7.75,5.19
Balakovo,10,RU,1970-01-01 00:00:01.556125768,56,52.02,47.82,13.55,2.91
Lata,19,IN,1970-01-01 00:00:01.556125768,77,30.78,78.62,-0.95,3.94
Pangody,100,RU,1970-01-01 00:00:01.556125769,85,65.85,74.49,-15.75,2.2
Dakar,0,SN,1970-01-01 00:00:01.556123400,40,14.69,-17.45,31.0,5.7
Bhera,84,PK,1970-01-01 00:00:01.556125652,30,32.48,72.91,29.15,2.31
Glendive,1,US,1970-01-01 00:00:01.556123700,44,47.11,-104.71,16.0,3.1
Harrison,90,US,1970-01-01 00:00:01.556125763,51,39.26,-84.82,17.78,1.5
Harper,90,US,1970-01-01 00:00:01.556125295,87,30.3,-99.24,16.11,3.6
Dzilam Gonzalez,1,MX,1970-01-01 00:00:01.556125771,70,21.28,-88.93,28.35,4.44
Delta,1,US,1970-01-01 00:00:01.556125588,47,41.57,-84.01,15.0,2.1
Smithers,20,CA,1970-01-01 00:00:01.556121600,55,54.78,-127.17,2.0,1.5
Chuy,56,UY,1970-01-01 00:00:01.556125772,72,-33.69,-53.46,20.25,6.38
Bambous Virieux,40,MU,1970-01-01 00:00:01.556125741,83,-20.34,57.76,26.0,2.1
Bonavista,100,CA,1970-01-01 00:00:01.556125298,87,48.65,-53.11,-1.11,13.96
El Higo,67,MX,1970-01-01 00:00:01.556125773,48,21.77,-98.45,32.65,2.66
Lakes Entrance,67,AU,1970-01-01 00:00:01.556125648,94,-37.88,147.99,15.0,2.36
Oranjemund,0,ZA,1970-01-01 00:00:01.556125774,74,-28.55,16.43,16.75,4.28
Mollendo,39,PE,1970-01-01 00:00:01.556125775,85,-17.03,-72.02,21.25,7.29
Rio Grande,75,BR,1970-01-01 00:00:01.556121600,83,-32.03,-52.1,22.0,7.2
Narasannapeta,26,IN,1970-01-01 00:00:01.556125775,70,18.42,84.04,28.75,2.2
Kribi,100,CM,1970-01-01 00:00:01.556125776,78,2.94,9.91,29.05,6.59
Chongoyape,0,PE,1970-01-01 00:00:01.556121600,51,-6.64,-79.39,28.0,8.2
Lodja,52,CD,1970-01-01 00:00:01.556125776,59,-3.52,23.6,26.85,0.21
Lazaro Cardenas,40,MX,1970-01-01 00:00:01.556125539,45,28.39,-105.62,22.22,2.6
Port Augusta,40,AU,1970-01-01 00:00:01.556121600,77,-32.49,137.76,16.0,4.1
Narsaq,75,GL,1970-01-01 00:00:01.556121000,67,60.91,-46.05,-5.0,2.1
Kabinda,16,CD,1970-01-01 00:00:01.556125778,55,-6.14,24.49,26.75,0.49
Presidencia Roque Saenz Pena,82,AR,1970-01-01 00:00:01.556125696,78,-26.79,-60.44,27.15,0.76
Ullapool,4,GB,1970-01-01 00:00:01.556125506,80,57.9,-5.16,13.89,2.24
Vila Franca do Campo,20,PT,1970-01-01 00:00:01.556125763,55,37.72,-25.43,17.0,8.2
Tricase,5,IT,1970-01-01 00:00:01.556125469,82,39.93,18.36,19.0,4.1
Sayan,31,YE,1970-01-01 00:00:01.556125779,69,15.88,43.46,29.65,1.32
Mayo,75,CA,1970-01-01 00:00:01.556121600,76,63.59,-135.9,0.0,3.1
Perth,75,GB,1970-01-01 00:00:01.556125695,87,56.4,-3.43,10.56,6.7
Bani Walid,42,LY,1970-01-01 00:00:01.556125781,16,31.76,14.0,29.45,3.02
Pecos,90,US,1970-01-01 00:00:01.556125342,87,31.42,-103.49,13.89,1.5
Mandera,100,ET,1970-01-01 00:00:01.556125781,47,3.94,41.86,32.45,2.84
Honggang,99,CN,1970-01-01 00:00:01.556125782,95,29.51,114.87,20.75,0.26
Ibatiba,33,BR,1970-01-01 00:00:01.556125782,71,-20.23,-41.51,24.15,1.81
Lompoc,75,US,1970-01-01 00:00:01.556125539,93,34.64,-120.46,18.0,1.5
Mizdah,92,LY,1970-01-01 00:00:01.556125783,6,31.45,12.98,30.95,4.94
Sinnamary,95,GF,1970-01-01 00:00:01.556125783,82,5.38,-52.96,27.55,6.52
Pyaozerskiy,45,RU,1970-01-01 00:00:01.556125783,89,65.83,31.17,5.45,2.74
Vaasa,0,FI,1970-01-01 00:00:01.556125219,27,63.1,21.62,18.0,1.5
Samarkand,38,UZ,1970-01-01 00:00:01.556123400,100,39.65,66.98,7.0,2.65
Amapa,20,HN,1970-01-01 00:00:01.556125526,55,15.09,-87.97,33.33,1.99
Paamiut,98,GL,1970-01-01 00:00:01.556125785,73,61.99,-49.67,-6.15,16.64
Flinders,16,AU,1970-01-01 00:00:01.556125507,72,-34.58,150.85,18.0,5.1
Raposa,40,PT,1970-01-01 00:00:01.556125777,87,39.11,-8.58,17.0,9.3
Shingu,100,JP,1970-01-01 00:00:01.556125786,99,33.72,135.99,16.65,0.76
Akureyri,0,IS,1970-01-01 00:00:01.556121600,51,65.68,-18.09,15.0,3.6
Ryotsu,75,JP,1970-01-01 00:00:01.556121600,100,38.08,138.43,16.0,1.0
Sharya,0,RU,1970-01-01 00:00:01.556125787,73,58.37,45.52,10.95,2.26
Byron Bay,75,AU,1970-01-01 00:00:01.556125366,100,-28.65,153.62,19.0,1.41
Huntsville,1,US,1970-01-01 00:00:01.556125761,44,34.73,-86.59,26.67,1.5
Oltu,40,TR,1970-01-01 00:00:01.556125788,65,40.55,42.0,1.95,2.09
Thayetmyo,28,MM,1970-01-01 00:00:01.556125788,31,19.32,95.18,31.15,2.95
Acapulco,5,MX,1970-01-01 00:00:01.556120580,74,16.86,-99.88,27.0,3.1
Maragogi,60,BR,1970-01-01 00:00:01.556125789,74,-9.01,-35.22,28.35,4.91
Constitucion,75,MX,1970-01-01 00:00:01.556124616,15,23.99,-104.67,21.67,3.6
Carutapera,100,BR,1970-01-01 00:00:01.556125790,78,-1.2,-46.02,28.25,2.49
Baruun-Urt,67,MN,1970-01-01 00:00:01.556125790,35,46.68,113.28,0.25,2.57
Honiara,75,SB,1970-01-01 00:00:01.556121600,100,-9.43,159.96,25.0,2.1
Khani,0,GE,1970-01-01 00:00:01.556123400,62,41.96,42.96,14.0,4.1
Takoradi,100,GH,1970-01-01 00:00:01.556125791,84,4.89,-1.75,26.75,1.55
Amga,99,RU,1970-01-01 00:00:01.556125791,89,60.89,131.98,-3.05,1.81
Uray,100,RU,1970-01-01 00:00:01.556125792,94,60.13,64.8,-0.65,2.3
Okha,100,RU,1970-01-01 00:00:01.556125792,89,53.59,142.95,-1.15,6.76
Vila Velha,20,BR,1970-01-01 00:00:01.556125696,58,-3.71,-38.6,31.11,8.2
Batticaloa,96,LK,1970-01-01 00:00:01.556125784,82,7.71,81.69,25.65,0.2
Coihaique,0,CL,1970-01-01 00:00:01.556121600,75,-45.58,-72.07,9.0,3.1
Robertson,31,ZA,1970-01-01 00:00:01.556125793,90,-33.8,19.88,15.45,1.58
Sao Sebastiao,40,BR,1970-01-01 00:00:01.556121600,74,-3.15,-58.36,30.0,2.6
Vreden,90,DE,1970-01-01 00:00:01.556125719,31,52.04,6.82,26.0,6.7
Chenzhou,87,CN,1970-01-01 00:00:01.556125794,87,25.81,113.03,24.65,1.48
Sovetskiy,1,RU,1970-01-01 00:00:01.556125795,74,56.76,48.47,11.35,3.08
Bela,1,PK,1970-01-01 00:00:01.556125796,44,26.23,66.31,29.95,4.68
Banjar,100,ID,1970-01-01 00:00:01.556125796,97,-7.37,108.54,23.65,1.09
Senneterre,90,CA,1970-01-01 00:00:01.556121600,93,48.39,-77.24,2.0,5.7
Srednekolymsk,99,RU,1970-01-01 00:00:01.556125797,91,67.46,153.71,-3.15,2.79
Hambantota,85,LK,1970-01-01 00:00:01.556125786,72,6.12,81.12,29.35,1.87
Ondjiva,20,AO,1970-01-01 00:00:01.556121600,26,-17.07,15.73,34.0,1.5
Pajapan,40,MX,1970-01-01 00:00:01.556120520,62,18.26,-94.69,30.0,5.1
Sobolevo,0,RU,1970-01-01 00:00:01.556125798,51,54.43,31.9,14.05,0.9
Hamilton,75,CA,1970-01-01 00:00:01.556125488,61,43.26,-79.87,12.22,5.1
Chilmari,0,BD,1970-01-01 00:00:01.556125799,46,25.59,89.66,29.85,2.0
Masagua,40,GT,1970-01-01 00:00:01.556121600,66,14.2,-90.85,32.0,2.1
Lagoa,75,PT,1970-01-01 00:00:01.556125693,88,37.14,-8.45,17.0,8.2
Pimentel,75,BR,1970-01-01 00:00:01.556125801,87,-3.7,-45.5,28.95,1.32
Provideniya,88,RU,1970-01-01 00:00:01.556125801,89,64.42,-173.23,-10.35,1.03
Imbituba,75,BR,1970-01-01 00:00:01.556124300,94,-28.24,-48.67,23.0,2.1
Pathein,34,MM,1970-01-01 00:00:01.556125682,78,16.78,94.73,28.45,3.68
Sitrah,0,BH,1970-01-01 00:00:01.556123400,46,26.15,50.62,22.0,7.7
Tomatlan,100,MX,1970-01-01 00:00:01.556125802,39,19.93,-105.25,30.65,3.65
Vanimo,66,PG,1970-01-01 00:00:01.556125803,80,-2.67,141.3,28.45,4.39
Navalmoral de la Mata,100,ES,1970-01-01 00:00:01.556125601,87,39.89,-5.54,10.0,4.77
Zaysan,91,KZ,1970-01-01 00:00:01.556125803,55,47.47,84.87,9.65,1.91
Sao Joao da Barra,40,BR,1970-01-01 00:00:01.556121600,55,-21.64,-41.05,31.0,3.1
Fare,100,PF,1970-01-01 00:00:01.556125804,82,-16.7,-151.02,28.05,7.89
Leh,98,IN,1970-01-01 00:00:01.556125804,82,34.16,77.58,-2.85,0.34
Hofn,90,IS,1970-01-01 00:00:01.556121600,76,64.25,-15.21,11.0,6.7
Dwarka,20,IN,1970-01-01 00:00:01.556125207,32,28.58,77.04,35.56,3.1
Lucea,20,JM,1970-01-01 00:00:01.556125212,66,18.44,-78.17,29.0,7.2
Fairhope,1,US,1970-01-01 00:00:01.556125775,73,30.52,-87.9,23.89,1.5
Codrington,90,AU,1970-01-01 00:00:01.556125366,93,-28.95,153.24,19.0,0.5
Kastamonu,69,TR,1970-01-01 00:00:01.556125806,77,41.38,33.78,6.55,0.96
Katobu,95,ID,1970-01-01 00:00:01.556125807,94,-4.94,122.53,24.95,2.12
Grindavik,90,IS,1970-01-01 00:00:01.556123673,100,63.84,-22.43,9.44,4.6
Ibimirim,64,BR,1970-01-01 00:00:01.556125808,37,-8.54,-37.69,32.75,7.23
Kaeo,0,NZ,1970-01-01 00:00:01.556125685,86,-35.1,173.78,14.44,4.2
Ewa Beach,75,US,1970-01-01 00:00:01.556125765,73,21.32,-158.01,24.0,1.5
Ponta Delgada,20,PT,1970-01-01 00:00:01.556125763,55,37.73,-25.67,17.0,8.2
Turan,1,RU,1970-01-01 00:00:01.556125810,81,52.15,93.92,-2.15,0.72
Luganville,86,VU,1970-01-01 00:00:01.556125810,95,-15.51,167.18,23.15,1.91
Shimoda,75,JP,1970-01-01 00:00:01.556125616,93,34.7,138.93,19.0,4.1
Bainbridge,100,US,1970-01-01 00:00:01.556125527,39,30.9,-84.58,27.22,2.56
Soma,100,JP,1970-01-01 00:00:01.556125315,72,37.8,140.92,17.22,0.89
Galle,90,US,1970-01-01 00:00:01.556125806,93,29.74,-97.91,17.22,6.7
Daoukro,99,CI,1970-01-01 00:00:01.556125812,89,7.06,-3.97,26.35,1.91
Staryy Nadym,99,RU,1970-01-01 00:00:01.556125812,85,65.61,72.68,-13.55,2.07
Vao,0,EE,1970-01-01 00:00:01.556125813,51,59.1,26.19,13.55,2.46
Imeni Poliny Osipenko,99,RU,1970-01-01 00:00:01.556125813,88,52.42,136.49,-3.15,3.25
Batemans Bay,0,AU,1970-01-01 00:00:01.556125400,93,-35.71,150.18,17.22,0.89
Pangnirtung,20,CA,1970-01-01 00:00:01.556121600,54,66.15,-65.72,-17.0,6.7
Mackenzie,1,CA,1970-01-01 00:00:01.556121600,40,55.34,-123.09,2.0,4.1
Souillac,0,FR,1970-01-01 00:00:01.556125774,71,45.6,-0.6,16.67,6.2
Awjilah,0,LY,1970-01-01 00:00:01.556125814,9,29.14,21.3,31.95,5.38
Raymond,90,US,1970-01-01 00:00:01.556125812,67,43.04,-71.18,18.33,3.1
Vila,75,IT,1970-01-01 00:00:01.556125814,87,45.18,8.4,17.22,4.6
Oskemen,75,KZ,1970-01-01 00:00:01.556123400,49,49.96,82.61,7.0,1.0
Pogranichnyy,100,RU,1970-01-01 00:00:01.556125816,43,44.41,131.38,1.55,2.04
Nuuk,75,GL,1970-01-01 00:00:01.556121000,62,64.17,-51.74,-7.0,8.7
Muros,75,ES,1970-01-01 00:00:01.556125789,81,42.77,-9.06,14.44,5.7
Grobina,3,LV,1970-01-01 00:00:01.556122800,19,56.54,21.17,21.0,4.6
Todos Santos,20,MX,1970-01-01 00:00:01.556125282,60,23.45,-110.23,27.78,4.91
Sao Felix do Xingu,100,BR,1970-01-01 00:00:01.556125705,62,-6.64,-51.99,30.55,1.72
San Vicente,75,SV,1970-01-01 00:00:01.556124600,78,13.64,-88.78,28.0,2.6
Rorvik,0,NO,1970-01-01 00:00:01.556122800,27,64.86,11.24,18.0,3.6
Shalinskoye,12,RU,1970-01-01 00:00:01.556125820,53,55.72,93.76,3.15,2.16
Gandorhun,51,SL,1970-01-01 00:00:01.556125820,28,8.44,-10.86,35.45,0.86
Nabire,100,ID,1970-01-01 00:00:01.556125820,99,-3.36,135.5,22.45,0.8
Madras,1,US,1970-01-01 00:00:01.556125815,62,44.63,-121.13,16.67,1.5
Stromness,40,CA,1970-01-01 00:00:01.556125804,65,42.87,-79.55,12.22,6.7
Lasa,0,CY,1970-01-01 00:00:01.556125221,59,34.92,32.53,19.0,6.2
Dumas,0,IN,1970-01-01 00:00:01.556123400,70,21.09,72.71,29.0,8.83
Meulaboh,99,ID,1970-01-01 00:00:01.556125822,72,4.14,96.13,29.65,3.24
Pontes e Lacerda,95,BR,1970-01-01 00:00:01.556125822,83,-15.23,-59.33,28.45,2.31
Tual,100,ID,1970-01-01 00:00:01.556125822,80,-5.67,132.75,29.25,7.78
Kita,75,JP,1970-01-01 00:00:01.556125814,93,35.76,139.74,20.0,7.7
Barmer,1,IN,1970-01-01 00:00:01.556125823,25,25.74,71.4,32.75,6.06
Karratha,17,AU,1970-01-01 00:00:01.556125824,31,-20.74,116.85,28.15,3.28
Zakamensk,11,RU,1970-01-01 00:00:01.556125824,62,50.38,103.29,-3.45,0.65
Barabai,95,ID,1970-01-01 00:00:01.556125824,96,-2.59,115.38,23.95,0.34
Kirkenes,75,NO,1970-01-01 00:00:01.556122800,80,69.73,30.05,5.0,1.5
State College,1,US,1970-01-01 00:00:01.556125759,44,40.79,-77.86,16.67,5.7
Ust-Maya,39,RU,1970-01-01 00:00:01.556125825,86,60.42,134.54,-3.65,1.28
Ayorou,52,NE,1970-01-01 00:00:01.556125825,24,14.73,0.92,38.05,1.83
Kasongo-Lunda,97,CD,1970-01-01 00:00:01.556125826,53,-6.48,16.82,26.55,0.89
Alice Springs,0,AU,1970-01-01 00:00:01.556123400,50,-23.7,133.88,14.0,3.1
Golden,40,CA,1970-01-01 00:00:01.556121600,70,51.3,-116.96,8.0,3.6
Rocha,9,UY,1970-01-01 00:00:01.556125616,58,-34.48,-54.34,20.35,4.51
Omboue,100,GA,1970-01-01 00:00:01.556125827,84,-1.57,9.26,28.25,4.0
Tiznit,1,MA,1970-01-01 00:00:01.556125827,76,29.7,-9.73,17.55,6.92
Chernyshevskiy,90,RU,1970-01-01 00:00:01.556125828,89,63.01,112.47,-0.75,4.22
Bumba,55,CD,1970-01-01 00:00:01.556125828,41,2.18,22.47,29.95,1.3
Urusha,0,RU,1970-01-01 00:00:01.556125828,82,54.05,122.9,-5.35,1.44
North Bend,40,US,1970-01-01 00:00:01.556125819,66,43.41,-124.22,12.22,1.5
Eureka,90,US,1970-01-01 00:00:01.556125648,93,40.8,-124.16,14.44,3.1
Huambo,75,AO,1970-01-01 00:00:01.556121600,83,-12.78,15.73,22.0,1.5
Egvekinot,4,RU,1970-01-01 00:00:01.556125698,88,66.32,-179.17,-14.25,2.91
Nioro,0,GM,1970-01-01 00:00:01.556125830,12,13.79,-15.05,38.75,2.92
Galion,1,US,1970-01-01 00:00:01.556125825,47,40.73,-82.79,15.56,2.1
Sur,0,OM,1970-01-01 00:00:01.556125831,56,22.57,59.53,27.95,1.36
Sabang,26,PH,1970-01-01 00:00:01.556125832,75,13.72,123.58,27.25,4.33
Nishihara,90,JP,1970-01-01 00:00:01.556125814,93,35.74,139.53,20.0,5.1
Mozarlandia,34,BR,1970-01-01 00:00:01.556125682,51,-14.74,-50.57,32.45,2.32
Sawtell,75,AU,1970-01-01 00:00:01.556125693,93,-30.38,153.1,17.0,1.5
Waipawa,47,NZ,1970-01-01 00:00:01.556125517,95,-39.94,176.59,12.22,1.86
Tete,40,MZ,1970-01-01 00:00:01.556121600,65,-16.16,33.59,27.0,2.6
Killybegs,0,IE,1970-01-01 00:00:01.556125024,72,54.63,-8.45,16.0,5.7
Tripoli,40,GR,1970-01-01 00:00:01.556125564,49,37.51,22.37,20.0,2.08
Kachiry,100,KZ,1970-01-01 00:00:01.556125727,47,53.07,76.1,11.55,5.49
Yeppoon,90,AU,1970-01-01 00:00:01.556123400,88,-23.13,150.74,21.0,5.1
Bafq,0,IR,1970-01-01 00:00:01.556125835,28,31.6,55.4,9.95,7.65
Baherden,85,TM,1970-01-01 00:00:01.556125836,79,38.44,57.43,4.35,3.01
Teahupoo,75,PF,1970-01-01 00:00:01.556125392,88,-17.83,-149.27,26.0,2.1
Gordeyevka,0,RU,1970-01-01 00:00:01.556125836,46,52.96,31.97,14.25,0.88
Salinopolis,100,BR,1970-01-01 00:00:01.556125837,76,-0.61,-47.36,28.65,5.59
Yaan,100,NG,1970-01-01 00:00:01.556125837,52,7.38,8.57,30.55,1.95
Maceio,75,BR,1970-01-01 00:00:01.556125200,51,-9.67,-35.74,30.0,5.7
Rivadavia,60,AR,1970-01-01 00:00:01.556125838,42,-31.53,-68.59,13.85,2.68
Sitka,0,US,1970-01-01 00:00:01.556125264,37,37.17,-99.65,18.89,0.45
Akonolinga,69,CM,1970-01-01 00:00:01.556125839,92,3.77,12.24,22.85,1.26
Ahuimanu,40,US,1970-01-01 00:00:01.556125836,69,21.44,-157.84,24.0,3.6
Emerald,90,AU,1970-01-01 00:00:01.556125398,100,-23.53,148.16,20.0,4.1
Cheremnoye,0,RU,1970-01-01 00:00:01.556123400,31,53.17,83.21,9.0,3.0
Agadez,1,NE,1970-01-01 00:00:01.556121360,4,16.97,7.99,38.0,2.1
Llanelli,100,GB,1970-01-01 00:00:01.556125809,93,51.68,-4.16,12.22,5.1
Klyuchi,100,RU,1970-01-01 00:00:01.556125841,43,52.25,79.17,11.15,3.78
Melnikovo,75,RU,1970-01-01 00:00:01.556125233,50,56.55,84.09,6.11,1.34
Phan Thiet,63,VN,1970-01-01 00:00:01.556125841,87,10.93,108.1,24.55,2.21
Bilibino,49,RU,1970-01-01 00:00:01.556125842,81,68.06,166.44,-12.65,3.21
Marsa Matruh,0,EG,1970-01-01 00:00:01.556121600,68,31.35,27.25,19.0,5.1
Mantua,40,IT,1970-01-01 00:00:01.556125814,77,45.16,10.79,19.44,3.1
Unai,50,BR,1970-01-01 00:00:01.556125776,65,-16.36,-46.91,26.75,3.44
Marzuq,16,YE,1970-01-01 00:00:01.556125843,19,14.4,46.47,26.85,5.03
Boden,0,SE,1970-01-01 00:00:01.556122800,57,65.83,21.69,10.0,2.6
Comodoro Rivadavia,0,AR,1970-01-01 00:00:01.556121600,48,-45.87,-67.48,16.0,2.1
Bobrovytsya,0,UA,1970-01-01 00:00:01.556123400,46,50.75,31.38,17.0,2.0
Verkhoyansk,86,RU,1970-01-01 00:00:01.556125844,81,67.55,133.39,-3.05,5.46
Chifeng,100,CN,1970-01-01 00:00:01.556125845,49,42.27,118.96,2.95,2.13
Bakchar,100,RU,1970-01-01 00:00:01.556125845,69,57.02,82.07,6.85,3.54
Hastings,47,NZ,1970-01-01 00:00:01.556125845,98,-39.64,176.84,13.65,1.86
Jining,88,CN,1970-01-01 00:00:01.556125191,76,35.41,116.58,21.67,8.03
Groa,70,FR,1970-01-01 00:00:01.556125686,66,48.67,-4.14,15.0,8.7
Bhag,52,PK,1970-01-01 00:00:01.556125846,22,29.04,67.82,35.25,1.35
Namibe,20,AO,1970-01-01 00:00:01.556121600,64,-15.19,12.15,22.0,5.1
Santa Ines,90,EC,1970-01-01 00:00:01.556125211,76,-0.82,-78.63,14.0,1.0
Crotone,0,IT,1970-01-01 00:00:01.556121000,77,39.09,17.12,18.0,3.1
Taltal,1,CL,1970-01-01 00:00:01.556125848,69,-25.41,-70.49,18.65,3.54
Nizwa,0,OM,1970-01-01 00:00:01.556125848,22,22.93,57.53,28.25,1.1
Kampong Thum,100,KH,1970-01-01 00:00:01.556125849,65,12.71,104.89,31.25,2.52
Bethanien,0,NA,1970-01-01 00:00:01.556125849,4,-26.5,17.16,20.65,4.45
Kenai,20,US,1970-01-01 00:00:01.556125624,59,60.55,-151.26,3.89,2.1
Songjianghe,94,CN,1970-01-01 00:00:01.556125850,45,42.18,127.48,2.45,1.15
Soyo,20,AO,1970-01-01 00:00:01.556121600,79,-6.13,12.37,30.0,3.1
Bunia,87,CD,1970-01-01 00:00:01.556125850,59,1.56,30.25,23.95,1.96
Calama,0,CL,1970-01-01 00:00:01.556125292,28,-22.46,-68.93,20.0,8.2
Morros,75,BR,1970-01-01 00:00:01.556125200,83,-2.87,-44.04,29.0,3.1
Rundu,72,NA,1970-01-01 00:00:01.556121600,31,-17.91,19.77,31.0,1.5
Tekeli,81,KZ,1970-01-01 00:00:01.556125852,66,44.86,78.76,14.65,2.36
Opuwo,8,NA,1970-01-01 00:00:01.556125852,24,-18.06,13.84,26.65,5.34
Houston,90,US,1970-01-01 00:00:01.556125562,88,29.76,-95.37,23.33,2.6
Tosya,49,TR,1970-01-01 00:00:01.556125746,65,41.02,34.04,7.45,1.69
Rudnyy,0,KZ,1970-01-01 00:00:01.556123400,49,52.96,63.12,8.0,4.0
Severo-Yeniseyskiy,100,RU,1970-01-01 00:00:01.556125799,91,60.37,93.04,-1.35,2.89
Ilhabela,0,BR,1970-01-01 00:00:01.556125813,79,-23.78,-45.36,25.75,1.77
Trabzon,0,TR,1970-01-01 00:00:01.556124600,87,41.01,39.72,11.11,3.6
Mersing,79,MY,1970-01-01 00:00:01.556125854,86,2.43,103.84,25.45,0.15
Kandrian,90,PG,1970-01-01 00:00:01.556125854,94,-6.21,149.55,23.85,0.97
Te Anau,86,NZ,1970-01-01 00:00:01.556125854,95,-45.41,167.72,5.65,1.5
Itaituba,40,BR,1970-01-01 00:00:01.556121600,70,-4.26,-55.99,31.0,5.1
Dire Dawa,100,ET,1970-01-01 00:00:01.556125855,67,9.59,41.86,21.55,1.8
Vestmannaeyjar,90,IS,1970-01-01 00:00:01.556119860,100,63.44,-20.27,8.0,14.4
Kansanshi,20,ZM,1970-01-01 00:00:01.556125856,84,-12.1,26.43,18.55,1.81
Cherskiy,100,RU,1970-01-01 00:00:01.556125856,92,68.75,161.3,-3.85,4.9
Yurimaguas,90,PE,1970-01-01 00:00:01.556121600,100,-5.9,-76.1,25.0,2.6
Sainte-Marie,90,CA,1970-01-01 00:00:01.556125830,86,46.45,-71.03,4.44,9.8
Qeshm,0,IR,1970-01-01 00:00:01.556123400,65,26.96,56.27,25.0,6.2
Coueron,75,FR,1970-01-01 00:00:01.556125744,54,47.22,-1.72,15.0,7.7
Can Tho,20,VN,1970-01-01 00:00:01.556123400,94,10.04,105.78,27.0,1.0
Kargasok,100,RU,1970-01-01 00:00:01.556125858,95,59.06,80.87,-0.05,2.74
Lakselv,75,NO,1970-01-01 00:00:01.556122800,86,70.05,24.96,6.0,1.5
Matagami,100,NG,1970-01-01 00:00:01.556125859,51,9.67,8.4,27.25,0.93
Tanete,100,ID,1970-01-01 00:00:01.556125859,79,-3.94,119.78,27.75,5.55
Davila,0,PH,1970-01-01 00:00:01.556125859,80,18.47,120.58,27.85,2.68
Mahon,75,IE,1970-01-01 00:00:01.556125779,81,51.89,-8.4,11.11,5.7
Kindu,82,CD,1970-01-01 00:00:01.556125860,65,-2.95,25.92,26.65,0.68
Keokuk,90,US,1970-01-01 00:00:01.556125737,76,40.4,-91.39,13.0,3.1
Qazvin,0,IR,1970-01-01 00:00:01.556121600,48,36.28,50.01,5.0,1.0
Tulum,75,MX,1970-01-01 00:00:01.556125821,66,20.21,-87.46,29.44,6.2
Neuquen,0,AR,1970-01-01 00:00:01.556121600,59,-38.95,-68.06,17.0,4.6
Laguna,5,MX,1970-01-01 00:00:01.556120520,40,27.52,-110.01,23.0,1.59
Pa Daet,75,TH,1970-01-01 00:00:01.556121600,58,19.5,99.99,28.0,7.2
Putyatino,0,RU,1970-01-01 00:00:01.556125862,57,54.16,41.12,13.85,2.69
Huangzhai,2,CN,1970-01-01 00:00:01.556125862,93,23.86,112.01,24.15,0.9
La Rioja,89,AR,1970-01-01 00:00:01.556125863,81,-29.41,-66.86,13.55,3.66
Fomboni,100,KM,1970-01-01 00:00:01.556125809,77,-12.28,43.74,29.75,19.15
Linxia,14,CN,1970-01-01 00:00:01.556125863,38,35.6,103.21,11.55,1.1
Savannah Bight,0,HN,1970-01-01 00:00:01.556125864,78,16.45,-85.85,27.35,7.54
Seminole,1,US,1970-01-01 00:00:01.556125312,76,32.72,-102.64,14.44,2.73
Abu Samrah,0,SY,1970-01-01 00:00:01.556125864,43,35.3,37.18,17.05,0.74
Barra Patuca,3,HN,1970-01-01 00:00:01.556125864,70,15.8,-84.28,28.35,5.75
Samoded,51,RU,1970-01-01 00:00:01.556125865,95,63.61,40.52,5.75,2.03
Kedrovyy,0,RU,1970-01-01 00:00:01.556123400,44,56.17,91.82,4.0,2.18
Havre-Saint-Pierre,75,CA,1970-01-01 00:00:01.556121600,60,50.23,-63.6,4.0,8.2
Turukhansk,17,RU,1970-01-01 00:00:01.556125866,93,65.8,87.96,-19.55,1.91
Beyneu,65,KZ,1970-01-01 00:00:01.556125866,45,45.32,55.19,12.85,1.51
Zalantun,1,CN,1970-01-01 00:00:01.556125867,40,48.0,122.72,1.25,2.34
Wairoa,98,NZ,1970-01-01 00:00:01.556125801,99,-39.04,177.43,15.56,1.75
Peterhead,20,AU,1970-01-01 00:00:01.556125855,93,-34.83,138.5,12.22,2.1
Isla Vista,1,US,1970-01-01 00:00:01.556125855,59,34.41,-119.86,25.56,2.06
Santa Cruz,1,US,1970-01-01 00:00:01.556125695,59,36.97,-122.03,26.11,1.5
Aksu,0,KZ,1970-01-01 00:00:01.556123400,70,52.04,76.93,6.0,3.0
Aurich,40,DE,1970-01-01 00:00:01.556125725,41,53.47,7.48,25.0,7.7
Caravelas,15,BR,1970-01-01 00:00:01.556125872,61,-17.73,-39.27,29.45,3.08
Irbeyskoye,0,RU,1970-01-01 00:00:01.556125872,53,55.64,95.45,4.05,1.83
North Platte,1,US,1970-01-01 00:00:01.556125509,45,41.12,-100.77,22.22,3.1
Coahuayana,1,MX,1970-01-01 00:00:01.556125872,12,18.62,-100.35,37.85,1.84
Matamoros,75,US,1970-01-01 00:00:01.556125817,65,25.87,-97.51,29.0,8.2
Carahue,90,CL,1970-01-01 00:00:01.556121600,100,-38.71,-73.16,10.0,1.5
Vostok,0,RU,1970-01-01 00:00:01.556125873,50,46.45,135.83,-0.75,1.58
Buala,46,SB,1970-01-01 00:00:01.556125874,81,-8.15,159.59,28.15,3.67
Hlobyne,0,UA,1970-01-01 00:00:01.556125874,37,49.39,33.25,14.85,1.71
Gushikawa,75,JP,1970-01-01 00:00:01.556125396,88,26.35,127.87,26.0,6.7
Kisangani,67,CD,1970-01-01 00:00:01.556125875,54,0.52,25.21,28.25,1.46
Changli,99,CN,1970-01-01 00:00:01.556125875,52,30.54,105.42,26.05,0.76
Kampot,40,KH,1970-01-01 00:00:01.556123400,83,10.62,104.18,28.0,1.0
Buchanan,75,LR,1970-01-01 00:00:01.556121600,74,5.88,-10.05,31.0,5.1
Shymkent,90,KZ,1970-01-01 00:00:01.556123400,87,42.31,69.59,10.0,9.0
Port Blair,59,IN,1970-01-01 00:00:01.556125876,74,11.67,92.75,30.35,3.06
Menongue,85,AO,1970-01-01 00:00:01.556125877,55,-14.66,17.68,22.85,1.45
Maniitsoq,94,GL,1970-01-01 00:00:01.556125877,82,65.42,-52.9,-9.35,8.84
Phulabani,34,IN,1970-01-01 00:00:01.556125877,40,20.47,84.23,28.95,3.2
Khonsa,0,IN,1970-01-01 00:00:01.556125877,64,26.99,95.51,20.35,1.37
Grand-Santi,84,GF,1970-01-01 00:00:01.556125878,91,4.27,-54.38,27.35,1.82
Astoria,1,US,1970-01-01 00:00:01.556125723,62,46.19,-123.83,12.78,4.6
Half Moon Bay,1,US,1970-01-01 00:00:01.556125867,68,37.46,-122.43,27.22,1.5
Namatanai,70,PG,1970-01-01 00:00:01.556125879,85,-3.66,152.44,26.25,2.64
Gimli,100,CA,1970-01-01 00:00:01.556125811,28,50.63,-96.99,18.33,5.36
Naze,100,NG,1970-01-01 00:00:01.556125879,69,5.43,7.07,28.75,2.85
Teeli,25,RU,1970-01-01 00:00:01.556125880,42,51.01,90.2,2.35,1.78
Olden,0,NO,1970-01-01 00:00:01.556125283,23,61.84,6.81,19.0,3.6
La Orilla,80,MX,1970-01-01 00:00:01.556125880,66,18.0,-102.23,26.95,4.08
Lamont,90,CA,1970-01-01 00:00:01.556125734,36,53.76,-112.78,7.0,7.2
Kushtagi,90,IN,1970-01-01 00:00:01.556125881,16,15.76,76.19,33.95,3.01
Labuhan,87,ID,1970-01-01 00:00:01.556125882,90,-2.54,115.51,23.95,1.2
Marienburg,0,DE,1970-01-01 00:00:01.556125776,41,52.12,9.98,24.44,4.6
Cam Ranh,20,VN,1970-01-01 00:00:01.556123400,78,11.92,109.15,28.0,2.6
Jalu,0,LY,1970-01-01 00:00:01.556125883,9,29.03,21.55,31.65,5.39
Ketchikan,75,US,1970-01-01 00:00:01.556124780,80,55.34,-131.65,5.0,2.6
Hansot,0,IN,1970-01-01 00:00:01.556123400,70,21.59,72.81,29.0,10.05
Cobadin,0,RO,1970-01-01 00:00:01.556125200,62,44.06,28.23,12.0,5.7
Kautokeino,50,NO,1970-01-01 00:00:01.556125884,98,69.01,23.04,1.25,1.49
Point Pleasant,1,US,1970-01-01 00:00:01.556125715,34,40.08,-74.07,22.22,6.7
Abdulino,87,RU,1970-01-01 00:00:01.556125885,74,53.68,53.66,11.25,3.58
Gat,0,SN,1970-01-01 00:00:01.556123400,40,14.69,-16.54,31.0,5.7
Balkhash,100,KZ,1970-01-01 00:00:01.556125886,63,46.84,74.98,9.45,5.13
Saint-Michel-des-Saints,100,CA,1970-01-01 00:00:01.556125824,97,46.68,-73.92,2.35,3.21
Mabaruma,78,GY,1970-01-01 00:00:01.556125886,81,8.2,-59.78,28.75,2.34
Matadi,87,CD,1970-01-01 00:00:01.556125887,81,-5.83,13.46,27.65,3.18
